[

  {
    "lng" : "4.1428327560425",
    "lat" : "52.01150069904",
    "country" : "Netherlands",
    "name" : "'s-Gravenzande"
  },
  {
    "lng" : "3.3628463745118",
    "lat" : "51.370923071145",
    "country" : "Belgium",
    "name" : "'t Zwin"
  },
  {
    "lng" : "18.407592773438",
    "lat" : "-33.671782783644",
    "country" : "South Africa, SW Coast",
    "name" : "11th Ave Melkbos Strand"
  },
  {
    "lng" : "-78.980884552002",
    "lat" : "33.595175061468",
    "country" : "USA, South East, South Carolina",
    "name" : "13th ave south surfside"
  },
  {
    "lng" : "144.4616317749",
    "lat" : "-38.285355481221",
    "country" : "Australia, VIC, Melbourne West",
    "name" : "13th beach"
  },
  {
    "lng" : "-80.608985424042",
    "lat" : "28.295557652054",
    "country" : "USA, South East, North Florida",
    "name" : "13th Street"
  },
  {
    "lng" : "-9.6858966350555",
    "lat" : "30.506121716054",
    "country" : "Morocco, South",
    "name" : "14th km."
  },
  {
    "lng" : "-117.26961135864",
    "lat" : "32.958805616471",
    "country" : "USA, California, San Diego County",
    "name" : "15th St."
  },
  {
    "lng" : "18.154660463333",
    "lat" : "-33.359011501838",
    "country" : "South Africa, West Coast",
    "name" : "16 MILE BEACH"
  },
  {
    "lng" : "-87.114865779877",
    "lat" : "30.335083520857",
    "country" : "USA, Gulf Coast, Florida",
    "name" : "17th Ave"
  },
  {
    "lng" : "-87.114865779877",
    "lat" : "30.335083520857",
    "country" : "USA, Gulf Coast, Florida",
    "name" : "17th Ave"
  },
  {
    "lng" : "-118.01432132721",
    "lat" : "33.663424992738",
    "country" : "USA, California, Orange County",
    "name" : "17th Street"
  },
  {
    "lng" : "-71.291527748108",
    "lat" : "41.487218449774",
    "country" : "USA, North East, Southern New England",
    "name" : "1st beach"
  },
  {
    "lng" : "-75.967771410942",
    "lat" : "36.830412875926",
    "country" : "USA, North East, Virginia",
    "name" : "1st Street Jetty"
  },
  {
    "lng" : "114.37447786331",
    "lat" : "-8.707180455719",
    "country" : "Indonesia, East Java",
    "name" : "20-20s"
  },
  {
    "lng" : "-123.19472908974",
    "lat" : "49.334964966094",
    "country" : "Canada, West Coast",
    "name" : "29th Street"
  },
  {
    "lng" : "-78.885655403137",
    "lat" : "33.683496610692",
    "country" : "USA, South East, South Carolina",
    "name" : "2nd Avenue Pier"
  },
  {
    "lng" : "-71.258418560028",
    "lat" : "41.487748890187",
    "country" : "USA, North East, Southern New England",
    "name" : "2nd Beach"
  },
  {
    "lng" : "152.59743690491",
    "lat" : "-31.966744587332",
    "country" : "Australia, NSW, Mid North Coast",
    "name" : "2nd corner"
  },
  {
    "lng" : "-80.603331327438",
    "lat" : "28.252735731286",
    "country" : "USA, South East, North Florida",
    "name" : "2nd Light"
  },
  {
    "lng" : "115.75018823147",
    "lat" : "-31.845587214995",
    "country" : "Australia, WA, Perth City",
    "name" : "2nds"
  },
  {
    "lng" : "-116.71371281147",
    "lat" : "31.897257421069",
    "country" : "Mexico, Baja Norte",
    "name" : "3 emes"
  },
  {
    "lng" : "-122.1173286438",
    "lat" : "36.961500196913",
    "country" : "USA, California, Santa Cruz",
    "name" : "3 Mile"
  },
  {
    "lng" : "150.54265022278",
    "lat" : "-35.24670558569",
    "country" : "Australia, NSW, South Coast",
    "name" : "3 way"
  },
  {
    "lng" : "138.46675515175",
    "lat" : "-35.177614339396",
    "country" : "Australia, SA, York Peninsula",
    "name" : "3-poles reef"
  },
  {
    "lng" : "-79.766889810562",
    "lat" : "32.795247488814",
    "country" : "USA, South East, South Carolina",
    "name" : "35th Street, IOP"
  },
  {
    "lng" : "-117.93722391129",
    "lat" : "33.615155376281",
    "country" : "USA, California, Orange County",
    "name" : "36th street"
  },
  {
    "lng" : "-74.685895442963",
    "lat" : "39.15717812309",
    "country" : "USA, North East, New Jersey",
    "name" : "36th Street"
  },
  {
    "lng" : "128.7326592207",
    "lat" : "38.006066734238",
    "country" : "South Korea",
    "name" : "38th Parallel"
  },
  {
    "lng" : "-74.386324882507",
    "lat" : "39.387917291121",
    "country" : "USA, North East, New Jersey",
    "name" : "38th St. Beach"
  },
  {
    "lng" : "18.444328308105",
    "lat" : "-33.772762043212",
    "country" : "South Africa, Cape Town",
    "name" : "3de Steen"
  },
  {
    "lng" : "115.74690520763",
    "lat" : "-31.833670075763",
    "country" : "Australia, WA, Perth City",
    "name" : "3rd Groyne"
  },
  {
    "lng" : "99.310655593872",
    "lat" : "-1.9091219602854",
    "country" : "Indonesia, Mentawai",
    "name" : "4 Bobs"
  },
  {
    "lng" : "-122.12505340576",
    "lat" : "36.965563579633",
    "country" : "USA, California, Santa Cruz",
    "name" : "4 Mile"
  },
  {
    "lng" : "-155.02799034119",
    "lat" : "19.735198843714",
    "country" : "USA, Hawaii, Hawaii Island",
    "name" : "4 Miles"
  },
  {
    "lng" : "-117.93889760971",
    "lat" : "33.617299678724",
    "country" : "USA, California, Orange County",
    "name" : "40th Street"
  },
  {
    "lng" : "-80.519651770592",
    "lat" : "7.2385158124997",
    "country" : "Panama",
    "name" : "411 (quatro-once)"
  },
  {
    "lng" : "-75.982003211975",
    "lat" : "36.870935151143",
    "country" : "USA, North East, Virginia",
    "name" : "42nd St. VA Beach"
  },
  {
    "lng" : "10.28497338295",
    "lat" : "43.638792795902",
    "country" : "Italy, Mainland",
    "name" : "46°"
  },
  {
    "lng" : "-78.844730257988",
    "lat" : "33.720658692791",
    "country" : "USA, South East, South Carolina",
    "name" : "48th st. Myrtle Beach"
  },
  {
    "lng" : "-75.06695151329",
    "lat" : "38.373230429205",
    "country" : "USA, North East, Virginia",
    "name" : "48th Street (Ocean City)"
  },
  {
    "lng" : "115.73548436165",
    "lat" : "-32.504749211233",
    "country" : "Australia, WA, Perth South",
    "name" : "4th groyne"
  },
  {
    "lng" : "-80.246887207031",
    "lat" : "-2.7312133615029",
    "country" : "Ecuador",
    "name" : "5 1 2km  &  8 1 2km"
  },
  {
    "lng" : "127.74185121059",
    "lat" : "26.331547281289",
    "country" : "Japan, Okinawa",
    "name" : "5 rocks"
  },
  {
    "lng" : "-117.94518470764",
    "lat" : "33.623223036949",
    "country" : "USA, California, Orange County",
    "name" : "56th St."
  },
  {
    "lng" : "-74.635705947876",
    "lat" : "39.221556798184",
    "country" : "USA, North East, New Jersey",
    "name" : "57th Street"
  },
  {
    "lng" : "-74.193077087402",
    "lat" : "39.62155713954",
    "country" : "USA, North East, New Jersey",
    "name" : "58th Street"
  },
  {
    "lng" : "-74.233160018921",
    "lat" : "39.564428398249",
    "country" : "USA, North East, New Jersey",
    "name" : "5th Street Beach Haven"
  },
  {
    "lng" : "25.655876398087",
    "lat" : "-33.978447519377",
    "country" : "South Africa, South East Port Elizabeth",
    "name" : "6 pillars"
  },
  {
    "lng" : "-74.098470211029",
    "lat" : "11.320374195181",
    "country" : "Colombia, Caribbean",
    "name" : "7 olas"
  },
  {
    "lng" : "126.09146118164",
    "lat" : "9.2442786704715",
    "country" : "Philippines, Mindanao",
    "name" : "7 rocks"
  },
  {
    "lng" : "-81.389041543007",
    "lat" : "30.296193427424",
    "country" : "USA, South East, North Florida",
    "name" : "7th Avenue"
  },
  {
    "lng" : "-75.989180803299",
    "lat" : "36.906794887097",
    "country" : "USA, North East, Virginia",
    "name" : "81st Street"
  },
  {
    "lng" : "-78.770309686661",
    "lat" : "33.770211362159",
    "country" : "USA, South East, South Carolina",
    "name" : "8th Ave n."
  },
  {
    "lng" : "-10.78841328621",
    "lat" : "6.2903422513069",
    "country" : "Liberia",
    "name" : "8th street"
  },
  {
    "lng" : "173.15380096436",
    "lat" : "-35.037586537405",
    "country" : "New Zealand, New Zealand NI, NW Coast",
    "name" : "90 Mile Beach"
  },
  {
    "lng" : "-73.812053203583",
    "lat" : "40.583330639749",
    "country" : "USA, North East, Long Island NY",
    "name" : "92nd Street"
  },
  {
    "lng" : "-8.8814163208008",
    "lat" : "42.454621116231",
    "country" : "Spain, Galicia",
    "name" : "A Lanzada"
  },
  {
    "lng" : "153.11654090881",
    "lat" : "-26.387564033081",
    "country" : "Australia, QLD, Sunshine Coast",
    "name" : "A-Bay"
  },
  {
    "lng" : "-120.86955428124",
    "lat" : "35.403165679424",
    "country" : "USA, California, San Luis Obispo",
    "name" : "A-Beach"
  },
  {
    "lng" : "12.065391540527",
    "lat" : "57.339215030548",
    "country" : "Sweden",
    "name" : "Å-land"
  },
  {
    "lng" : "-8.775200843811",
    "lat" : "41.390589886459",
    "country" : "Portugal, North Porto",
    "name" : "A-ver-o-mar"
  },
  {
    "lng" : "99.593939781189",
    "lat" : "-2.2784615120746",
    "country" : "Indonesia, Mentawai",
    "name" : "aaron's"
  },
  {
    "lng" : "-117.25699961185",
    "lat" : "32.713912773621",
    "country" : "USA, California, San Diego County",
    "name" : "Ab"
  },
  {
    "lng" : "-157.89822220802",
    "lat" : "21.302227031754",
    "country" : "USA, Hawaii, Oahu",
    "name" : "Abalolo Reef"
  },
  {
    "lng" : "-118.37602257729",
    "lat" : "33.737772743545",
    "country" : "USA, California, LA County",
    "name" : "Abalone Cove"
  },
  {
    "lng" : "-4.6327972412109",
    "lat" : "48.579247664664",
    "country" : "France, Brittany North",
    "name" : "Aber wrac'h point"
  },
  {
    "lng" : "-3.8109683990479",
    "lat" : "51.585325889366",
    "country" : "UK, South Wales",
    "name" : "Aberavon"
  },
  {
    "lng" : "-4.7035217285156",
    "lat" : "52.806497325082",
    "country" : "UK, North Wales and NW England",
    "name" : "Aberdaron"
  },
  {
    "lng" : "-2.0793342590332",
    "lat" : "57.164639439826",
    "country" : "UK, East Scotland",
    "name" : "Aberdeen"
  },
  {
    "lng" : "-13.290882110596",
    "lat" : "8.4910697360278",
    "country" : "Sierra Leone",
    "name" : "Aberdeen Area Beach"
  },
  {
    "lng" : "-4.5067977905273",
    "lat" : "52.823797664671",
    "country" : "UK, North Wales and NW England",
    "name" : "abersoch"
  },
  {
    "lng" : "-8.7821583333333",
    "lat" : "38.1761",
    "country" : "Portugal, South",
    "name" : "Aberta-A-Nova"
  },
  {
    "lng" : "25.480148792267",
    "lat" : "37.173294832662",
    "country" : "Greece, Greek Islands",
    "name" : "Abrami Beach"
  },
  {
    "lng" : "-32.400580644608",
    "lat" : "-3.8276018092756",
    "country" : "Brazil, Fernando do Noronha",
    "name" : "Abras"
  },
  {
    "lng" : "-59.590036869049",
    "lat" : "13.072674908698",
    "country" : "Barbados",
    "name" : "Accra Beach - Rockley Beach"
  },
  {
    "lng" : "-17.220082283022",
    "lat" : "32.851074236901",
    "country" : "Madeira",
    "name" : "Achadas da Cruz"
  },
  {
    "lng" : "-13.933839797974",
    "lat" : "28.74775223066",
    "country" : "Canary, Fuerte Ventura",
    "name" : "Acid Drop"
  },
  {
    "lng" : "150.90359508991",
    "lat" : "-34.411764714983",
    "country" : "Australia, NSW, Coal Coast",
    "name" : "Acids"
  },
  {
    "lng" : "28.085389137268",
    "lat" : "36.096256229045",
    "country" : "Greece, Greek Islands",
    "name" : "Acropolis"
  }
]